[
  {
    "id": "shenkman-hall",
    "name": "Shenkman Hall Dining",
    "type": "All-You-Care-to-Eat",
    "campus": "Foggy Bottom",
    "address": "616 23rd Street NW",
    "phone": "(202) 994-6555",
    "lat": 38.9007,
    "lng": -77.0486,
    "hours": "Weekdays: 7:00 AM – 10:00 PM\nWeekends: 9:00 AM – 9:00 PM",
    "description": "All-you-care-to-eat open concept dining hall with seven dining concepts including sushi, poke bowls, ramen, and Global & Market.",
    "payment": ["Dining Dollars", "Campus Cash", "GWorld"],
    "tags": ["All-you-care-to-eat", "Student favorite"],
    "rating": 4.5,
    "reviews": 127
  },
  {
    "id": "thurston-hall",
    "name": "Thurston Hall Dining",
    "type": "All-You-Care-to-Eat",
    "campus": "Foggy Bottom",
    "address": "1900 F Street NW",
    "phone": "(202) 994-6556",
    "lat": 38.8979,
    "lng": -77.0433,
    "hours": "Weekdays: 7:00 AM – 10:00 PM\nWeekends: 9:00 AM – 9:00 PM",
    "description": "All-you-care-to-eat dining hall with multiple concepts, including allergen-friendly stations and self-serve dessert.",
    "payment": ["Dining Dollars", "Campus Cash", "GWorld"],
    "tags": ["All-you-care-to-eat"],
    "rating": 4.3,
    "reviews": 89
  },
  {
    "id": "pelham-commons",
    "name": "The Eatery at Pelham Commons",
    "type": "All-You-Care-to-Eat",
    "campus": "Mount Vernon",
    "address": "2100 Foxhall Road NW",
    "phone": "(202) 994-6557",
    "lat": 38.9422,
    "lng": -77.0860,
    "hours": "Weekdays: 7:00 AM – 9:00 PM\nWeekends: 9:00 AM – 8:00 PM",
    "description": "Mount Vernon campus all-you-care-to-eat dining hall featuring multiple stations including Grill 202.",
    "payment": ["Dining Dollars", "Campus Cash", "GWorld"],
    "tags": ["All-you-care-to-eat"],
    "rating": 4.1,
    "reviews": 56
  },
  {
    "id": "halal-shack",
    "name": "Halal Shack",
    "type": "Halal Restaurant",
    "campus": "Foggy Bottom",
    "address": "2121 H Street NW, B1 Level",
    "phone": "(202) 994-6558",
    "lat": 38.9000,
    "lng": -77.0475,
    "hours": "Weekdays: 11:00 AM – 9:00 PM\nWeekends: 12:00 PM – 8:00 PM",
    "description": "Dedicated halal concept serving shawarma, kebabs, and Middle Eastern sides.",
    "payment": ["Dining Dollars", "Campus Cash", "Credit Cards"],
    "tags": ["Halal"],
    "rating": 4.6,
    "reviews": 73
  },
  {
    "id": "student-center",
    "name": "University Student Center Dining",
    "type": "Food Court",
    "campus": "Foggy Bottom",
    "address": "800 21st Street NW, 1st Floor",
    "phone": "(202) 994-6559",
    "lat": 38.8996,
    "lng": -77.0482,
    "hours": "Weekdays: 7:00 AM – 11:00 PM\nWeekends: 10:00 AM – 11:00 PM",
    "description": "Central hub with multiple vendors and flexible dining options for students and visitors.",
    "payment": ["Dining Dollars", "Campus Cash", "Credit Cards"],
    "tags": ["Food court"],
    "rating": 3.9,
    "reviews": 112
  },
  {
    "id": "ross-hall",
    "name": "Ross Hall Dining",
    "type": "Café",
    "campus": "Foggy Bottom",
    "address": "2300 I Street NW, 1st Floor",
    "phone": "(202) 994-6560",
    "lat": 38.9009,
    "lng": -77.0506,
    "hours": "Weekdays: 7:30 AM – 3:00 PM\nWeekends: Closed",
    "description": "Grab-and-go café for SMHS students, faculty, and staff with coffee and light meals.",
    "payment": ["Dining Dollars", "Campus Cash", "Credit Cards"],
    "tags": ["Café"],
    "rating": 4.2,
    "reviews": 34
  },
  {
    "id": "ames-hall",
    "name": "Ames Hall Dining",
    "type": "Café",
    "campus": "Mount Vernon",
    "address": "2100 Foxhall Road NW",
    "phone": "(202) 994-6561",
    "lat": 38.9414,
    "lng": -77.0871,
    "hours": "Weekdays: 7:30 AM – 3:00 PM\nWeekends: Closed",
    "description": "Mount Vernon café serving coffee, pastries, and light meals.",
    "payment": ["Dining Dollars", "Campus Cash", "Credit Cards"],
    "tags": ["Café"],
    "rating": 4.0,
    "reviews": 28
  },
  {
    "id": "gw-hillel",
    "name": "GW Hillel Dining",
    "type": "Kosher Dining",
    "campus": "Hillel",
    "address": "2300 H Street NW, Lower Level",
    "phone": "(202) 994-6562",
    "lat": 38.9001,
    "lng": -77.0438,
    "hours": "Weekdays: 11:00 AM – 2:00 PM, 5:00 PM – 8:00 PM\nWeekends: 12:00 PM – 3:00 PM",
    "description": "Kosher dining facility with accommodating dietary restrictions for the Jewish student community.",
    "payment": ["Dining Dollars", "Campus Cash", "Credit Cards"],
    "tags": ["Kosher"],
    "rating": 4.7,
    "reviews": 41
  }
]